[
    {
       "citiesData": [
          {
             "name": "Aachen",
             "lat": 50.77823,
             "long": 6.08864
          },
          {
             "name": "Augsburg",
             "lat": 48.37035,
             "long": 10.89789
          },
          {
             "name": "Bergisch Gladbach",
             "lat": 50.99169,
             "long": 7.13365
          },
          {
             "name": "Bielefeld",
             "lat": 52.01548,
             "long": 8.53232
          },
          {
             "name": "Bonn",
             "lat": 50.73243,
             "long": 7.10187
          },
          {
             "name": "Braunschweig",
             "lat": 52.26546,
             "long": 10.52741
          },
          {
             "name": "Bremerhaven",
             "lat": 53.54434,
             "long": 8.58195
          },
          {
             "name": "Chemnitz",
             "lat": 50.83669,
             "long": 12.92087
          },
          {
             "name": "Darmstadt",
             "lat": 49.87264,
             "long": 8.65014
          },
          {
             "name": "Dortmund",
             "lat": 51.51661,
             "long": 7.4583
          },
          {
             "name": "Duisburg",
             "lat": 51.43148,
             "long": 6.76356
          },
          {
             "name": "Erfurt",
             "lat": 50.97794,
             "long": 11.02351
          },
          {
             "name": "Erlangen",
             "lat": 49.59795,
             "long": 11.00258
          },
          {
             "name": "Freiburg",
             "lat": 47.99854,
             "long": 7.84965
          },
          {
             "name": "Göttingen",
             "lat": 51.53053,
             "long": 9.93839
          },
          {
             "name": "Halle",
             "lat": 51.4822,
             "long": 11.97495
          },
          {
             "name": "Heidelberg",
             "lat": 49.41349,
             "long": 8.70799
          },
          {
             "name": "Heilbronn",
             "lat": 49.14315,
             "long": 9.21928
          },
          {
             "name": "Ingolstadt",
             "lat": 48.76237,
             "long": 11.42523
          },
          {
             "name": "Kassel",
             "lat": 51.31854,
             "long": 9.51183
          },
          {
             "name": "Kiel",
             "lat": 54.32325,
             "long": 10.13224
          },
          {
             "name": "Koblenz",
             "lat": 50.3609,
             "long": 7.59282
          },
          {
             "name": "Leverkusen",
             "lat": 51.03321,
             "long": 6.98173
          },
          {
             "name": "Lübeck",
             "lat": 53.86628,
             "long": 10.68082
          },
          {
             "name": "Magdeburg",
             "lat": 52.13046,
             "long": 11.63153
          },
          {
             "name": "Mainz",
             "lat": 50.00062,
             "long": 8.27241
          },
          {
             "name": "Mönchengladbach",
             "lat": 51.1955,
             "long": 6.44269
          },
          {
             "name": "Münster",
             "lat": 51.96302,
             "long": 7.61782
          },
          {
             "name": "Oldenburg",
             "lat": 53.13883,
             "long": 8.21125
          },
          {
             "name": "Osnabrück",
             "lat": 52.2719,
             "long": 8.04479
          },
          {
             "name": "Paderborn",
             "lat": 51.71815,
             "long": 8.75204
          },
          {
             "name": "Potsdam",
             "lat": 52.3997,
             "long": 13.04782
          },
          {
             "name": "Regensburg",
             "lat": 49.01492,
             "long": 12.10169
          },
          {
             "name": "Rostock",
             "lat": 54.07905,
             "long": 12.1322
          },
          {
             "name": "Trier",
             "lat": 49.75734,
             "long": 6.6363
          },
          {
             "name": "Wiesbaden",
             "lat": 50.08466,
             "long": 8.24215
          },
          {
             "name": "Wolfsburg",
             "lat": 52.42137,
             "long": 10.78703
          }
       ]
    },
    {
       "citiesBus": [
          {
             "name": "Berlin",
             "lat": 52.51605,
             "long": 13.37691
          },
          {
             "name": "Bremen",
             "lat": 53.07537,
             "long": 8.80454
          },
          {
             "name": "Dresden",
             "lat": 51.05364,
             "long": 13.74082
          },
          {
             "name": "Düsseldorf",
             "lat": 51.21564,
             "long": 6.77662
          },
          {
             "name": "Essen",
             "lat": 51.45183,
             "long": 7.01109
          },
          {
             "name": "Frankfurt",
             "lat": 50.11208,
             "long": 8.68342
          },
          {
             "name": "Hamburg",
             "lat": 53.55562,
             "long": 9.98746
          },
          {
             "name": "Hannover",
             "lat": 52.37228,
             "long": 9.73816
          },
          {
             "name": "Karlsruhe",
             "lat": 49.01094,
             "long": 8.40846
          },
          {
             "name": "Köln",
             "lat": 50.94168,
             "long": 6.95513
          },
          {
             "name": "Leipzig",
             "lat": 51.3452,
             "long": 12.38594
          },
          {
             "name": "Mannheim",
             "lat": 49.48651,
             "long": 8.46679
          },
          {
             "name": "München",
             "lat": 48.13642,
             "long": 11.57755
          },
          {
             "name": "Nürnberg",
             "lat": 49.45435,
             "long": 11.0735
          },
          {
             "name": "Saarbrücken",
             "lat": 49.23175,
             "long": 6.9985
          },
          {
             "name": "Stuttgart",
             "lat": 48.76779,
             "long": 9.17203
          },
          {
             "name": "Ulm",
             "lat": 48.39719,
             "long": 9.98759
          },
          {
             "name": "Würzburg",
             "lat": 49.79299,
             "long": 9.93652
          }
       ]
    }
 ]